[
    {
        "id": 1,
        "name": "Quick Fix Plumbing",
        "category": "Plumbing",
        "phone": "555-0101",
        "zipcodes": ["94043", "94040"],
        "rating": 4.8,
        "lat": 37.422, "lng": -122.084,
        "groupBuy": {
            "current": 3,
            "tiers": [
                {"count": 1, "discount": 0},
                {"count": 3, "discount": 10},
                {"count": 5, "discount": 20},
                {"count": 10, "discount": 30}
            ]
        }
    },
    {
        "id": 2,
        "name": "Precision Fencing",
        "category": "Fencing",
        "phone": "555-0202",
        "zipcodes": ["94043", "95051"],
        "rating": 4.5,
        "lat": 37.415, "lng": -122.075,
        "groupBuy": {
            "current": 1,
            "tiers": [
                {"count": 1, "discount": 0},
                {"count": 3, "discount": 15},
                {"count": 6, "discount": 25}
            ]
        }
    },
    {
        "id": 3,
        "name": "EcoPaint Pros",
        "category": "Painting",
        "phone": "555-0303",
        "zipcodes": ["94040", "94041"],
        "rating": 4.9,
        "lat": 37.386, "lng": -122.083,
        "groupBuy": {
            "current": 4,
            "tiers": [
                {"count": 1, "discount": 0},
                {"count": 5, "discount": 20}
            ]
        }
    },
    {
        "id": 4,
        "name": "Reliable Roofers",
        "category": "Roofing",
        "phone": "555-0404",
        "zipcodes": ["94043"],
        "rating": 4.2,
        "lat": 37.430, "lng": -122.095,
        "groupBuy": {
            "current": 2,
            "tiers": [
                {"count": 1, "discount": 0},
                {"count": 3, "discount": 10},
                {"count": 5, "discount": 15}
            ]
        }
    },
    {
        "id": 5,
        "name": "Modern Handyman",
        "category": "Handyman",
        "phone": "555-0505",
        "zipcodes": ["95051", "94040"],
        "rating": 4.7,
        "lat": 37.352, "lng": -121.953,
        "groupBuy": {
            "current": 1,
            "tiers": [
                {"count": 1, "discount": 0},
                {"count": 3, "discount": 10}
            ]
        }
    },
    {
        "id": 6,
        "name": "Bay Area Plumbing Experts",
        "category": "Plumbing",
        "phone": "555-0606",
        "zipcodes": ["95112"],
        "rating": 4.9,
        "lat": 37.338, "lng": -121.886,
        "groupBuy": { "current": 0, "tiers": [{"count": 1, "discount": 0}, {"count": 3, "discount": 10}] }
    },
    {
        "id": 7,
        "name": "Budget Pipe & Drain",
        "category": "Plumbing",
        "phone": "555-0707",
        "zipcodes": ["94401"],
        "rating": 4.1,
        "lat": 37.563, "lng": -122.325,
        "groupBuy": { "current": 0, "tiers": [{"count": 1, "discount": 0}, {"count": 3, "discount": 10}] }
    },
    {
        "id": 8,
        "name": "Elite Flow Solutions",
        "category": "Plumbing",
        "phone": "555-0808",
        "zipcodes": ["94103"],
        "rating": 4.6,
        "lat": 37.774, "lng": -122.419,
        "groupBuy": { "current": 0, "tiers": [{"count": 1, "discount": 0}, {"count": 5, "discount": 15}] }
    },
    {
        "id": 9,
        "name": "City Wide Plumbers",
        "category": "Plumbing",
        "phone": "555-0909",
        "zipcodes": ["94536"],
        "rating": 4.4,
        "lat": 37.548, "lng": -121.988,
        "groupBuy": { "current": 0, "tiers": [{"count": 1, "discount": 0}, {"count": 3, "discount": 10}] }
    },
    {
        "id": 10,
        "name": "Premium Pipes",
        "category": "Plumbing",
        "phone": "555-1010",
        "zipcodes": ["95014"],
        "rating": 4.7,
        "lat": 37.323, "lng": -122.032,
        "groupBuy": { "current": 0, "tiers": [{"count": 1, "discount": 0}, {"count": 3, "discount": 10}] }
    }
]
